     2.11           OBSERVATION DATA    M (MIXED)           RINEX VERSION / TYPE
teqc  2016Apr1                          20170114 00:30:03UTCPGM / RUN BY / DATE
Linux 2.4.20-8|Pentium IV|gcc|Linux|486/DX+                 COMMENT
teqc  2016Apr1                          20170114 00:07:50UTCCOMMENT
Solaris x86 5.10|AMD64|cc SC5.8 -xarch=amd64|=+|=+          COMMENT
BIT 2 OF LLI FLAGS DATA COLLECTED UNDER A/S CONDITION       COMMENT
SEP3                                                        MARKER NAME
50124M003                                                   MARKER NUMBER
geodesy@ga.gov.au   GEOSCIENCE AUSTRALIA                    OBSERVER / AGENCY
3007592             SEPT POLARX4TR      2.9.6               REC # / TYPE / VERS
CR519994908         ASH701945C_M    NONE                    ANT # / TYPE
 -4648240.0068  2560636.5563 -3526319.0239                  APPROX POSITION XYZ
        0.0300        0.0000        0.0000                  ANTENNA: DELTA H/E/N
     1     1                                                WAVELENGTH FACT L1/2
     7    L1    L2    C1    P1    P2    S1    S2            # / TYPES OF OBSERV
    30.0000                                                 INTERVAL
Forced Modulo Decimation to 30 seconds                      COMMENT
 SNR is mapped to RINEX snr flag value [0-9]                COMMENT
  L1 & L2: min(max(int(snr_dBHz/6), 0), 9)                  COMMENT
    17                                                      LEAP SECONDS
teqc.static edited: all Galileo satellites excluded         COMMENT
  2017     1    13     0     0    0.0000000     GPS         TIME OF FIRST OBS
                                                            END OF HEADER
 17  1 13  0  0  0.0000000  0 15G01G24G28G06G30G19R13G15G13G17R24R14
                                R12R17R23
 128315924.994 6  99986439.21643  24417707.397    24417707.504    24417712.530
        38.750          20.000
 125762727.819 6  97996944.47643  23931849.413    23931849.364    23931852.892
        37.750          21.250
 112966476.933 7  88025835.88445  21496808.751    21496808.090    21496808.747
        46.500          32.250
 119787399.610 6  93340863.10543  22794782.128    22794782.154    22794787.158
        38.750          22.000
 119610259.890 6  93202805.24343  22761077.476    22761077.061    22761081.858
        36.250          20.750
 108771793.035 8  84757243.50947  20698580.814    20698579.875    20698579.025
        51.000          45.750
 105465666.276 6  82028882.497 7  19750330.297                    19750338.122
        41.250          46.000
 122101459.471 7  95143989.73844  23235135.175    23235135.171    23235135.904
        43.250          28.000
 117411659.981 7  91489577.39244  22342696.702    22342696.412    22342697.292
        45.500          29.750
 105391770.227 8  82123460.91647  20055384.674    20055384.567    20055384.755
        51.500          46.500
 103619498.131 6  80592967.755 6  19377363.150                    19377369.692
        39.250          36.000
 110679130.501 6  86083818.526 6  20763119.525                    20763130.311
        40.000          40.250
 123952886.666 4                  23204239.244
        29.500
 121031411.962 5  94135581.366 6  22617611.567                    22617620.448
        35.250          39.000
 108217496.502 7  84169208.174 6  20230114.388                    20230124.444
        43.750          40.000
 17  1 13  0  0 30.0000000  0 14G01G24G28G06G30G19R13G15G13G17R24R14
                                R17R23
 128379500.181 6 100035978.29643  24429806.257    24429806.386    24429810.568
        39.750          19.750
 125662240.210 6  97918642.48043  23912727.467    23912727.463    23912730.418
        40.000          21.000
 113025832.071 7  88072086.62645  21508103.399    21508102.729    21508103.757
        46.000          32.000
 119689794.261 6  93264807.00743  22776208.573    22776208.666    22776213.232
        40.000          23.000
 119700348.649 6  93273004.17243  22778222.191    22778221.816    22778224.669
        39.000          21.250
 108758139.605 8  84746604.46947  20695982.940    20695982.001    20695980.914
        51.000          45.750
 105479744.912 6  82039832.543 7  19752966.461                    19752974.398
        41.250          46.250
 122118410.536 7  95157198.31444  23238360.378    23238360.400    23238361.898
        42.250          27.000
 117473916.402 7  91538088.86544  22354543.720    22354543.448    22354544.073
        46.000          29.500
 105412714.135 8  82139780.84047  20059370.151    20059370.044    20059370.307
        51.750          46.250
 103582256.375 6  80564001.939 6  19370398.763                    19370405.041
        39.750          36.750
 110596475.938 6  86019531.673 6  20747613.991                    20747624.401
        40.250          40.250
 120907777.252 5  94039421.144 6  22594507.324                    22594515.833
        34.750          38.750
 108295767.378 7  84230085.501 6  20244746.739                    20244756.148
        43.750          39.750
 17  1 13  0  1  0.0000000  0 14G01G24G28G06G30G19R13G15G13G17R24R14
                                R17R23
 128443492.188 6 100085842.18743  24441983.170    24441983.286    24441987.328
        39.500          18.500
 125561876.724 6  97840437.20243  23893627.593    23893627.601    23893632.342
        38.000          21.750
 113085355.384 7  88118468.42145  21519430.368    21519429.693    21519430.471
        46.250          31.500
 119592368.030 6  93188890.53743  22757670.500    22757670.620    22757673.867
        41.000          23.750
 119790703.828 6  93343410.79743  22795416.354    22795415.939    22795419.028
        37.750          19.250
 108744928.009 8  84736309.71747  20693468.864    20693467.925    20693466.736
        50.750          45.500
 105494324.781 6  82051172.436 7  19755696.982                    19755704.802
        41.750          46.000
 122135841.481 7  95170780.86144  23241677.580    23241677.602    23241678.706
        42.750          27.000
 117536551.495 7  91586895.38845  22366463.018    22366462.719    22366463.335
        46.500          30.250
 105434160.039 8  82156491.93247  20063451.173    20063451.062    20063451.258
        51.250          46.000
 103545759.851 6  80535615.780 6  19363573.118                    19363580.268
        39.250          36.250
 110514001.155 6  85955384.637 6  20732141.524                    20732152.350
        40.750          40.000
 120784415.937 5  93943473.542 6  22571453.708                    22571462.575
        33.500          38.250
 108374586.455 7  84291389.233 6  20259480.570                    20259490.488
        43.750          39.500
 17  1 13  0  1 30.0000000  0 14G01G24G28G06G30G19R13G15G13G17R24R14
                                R17R23
 128507899.291 6 100136029.48543  24454239.105    24454239.145    24454243.840
        39.000          20.500
 125461639.894 6  97762330.61343  23874553.592    23874553.548    23874557.951
        39.000          21.000
 113145046.811 7  88164981.20645  21530789.792    21530789.108    21530789.206
        47.500          32.500
 119495124.255 6  93113116.19743  22739164.395    22739164.596    22739169.135
        40.250          21.750
 119881324.224 6  93414024.00943  22812660.978    22812660.581    22812664.046
        38.750          18.250
 108732157.536 8  84726358.69647  20691038.506    20691037.563    20691036.641
        50.500          45.500
 105509407.443 6  82062903.400 7  19758521.759                    19758529.455
        41.500          46.250
 122153750.560 7  95184735.93844  23245086.365    23245086.405    23245086.499
        43.000          27.000
 117599562.710 7  91635994.99145  22378453.727    22378453.446    22378454.157
        46.750          30.750
 105456106.327 8  82173592.93847  20067627.378    20067627.271    20067627.507
        51.750          46.250
 103510008.863 6  80507809.481 6  19356887.912                    19356894.678
        39.000          36.750
 110431709.461 6  85891380.039 6  20716704.173                    20716714.909
        41.000          40.500
 120661331.462 5  93847741.254 6  22548453.873                    22548461.774
        35.000          38.500
 108453950.192 7  84353116.574 6  20274316.846                    20274326.876
        44.000          40.000
 17  1 13  0  2  0.0000000  0 14G01G24G28G06G30G19R13G15G13G17R24R14
                                R17R23
 128572719.865 6 100186538.95743  24466574.782    24466574.822    24466578.856
        40.250          19.750
 125361532.920 6  97684325.20443  23855503.585    23855503.572    23855508.768
        39.000          21.750
 113204906.114 7  88211624.79145  21542180.530    21542179.837    21542180.302
        46.750          32.250
 119398066.134 6  93037486.57043  22720695.002    22720695.176    22720699.482
        40.000          22.500
 119972208.326 5  93484842.78042  22829954.616    22829954.160    22829958.797
        35.500          16.250
 108719827.390 8  84716750.79347  20688692.254    20688691.311    20688690.430
        51.250          46.000
 105524994.391 6  82075026.572 7  19761440.763                    19761448.338
        41.250          46.000
 122172136.587 7  95199062.67744  23248584.752    23248584.787    23248585.736
        42.750          27.500
 117662947.454 7  91685385.66645  22390515.209    22390514.937    22390516.211
        45.500          30.000
 105478551.404 8  82191082.60147  20071898.645    20071898.534    20071898.743
        51.500          46.250
 103475004.483 6  80480583.868 6  19350341.721                    19350348.513
        39.000          36.750
 110349603.473 6  85827519.836 6  20701300.564                    20701311.967
        40.250          40.500
 120538527.067 5  93752226.726 6  22525503.784                    22525511.914
        32.750          36.250
 108533854.586 7  84415264.429 6  20289254.315                    20289264.108
        44.000          40.000
 17  1 13  0  2 30.0000000  0 14G01G24G28G06G30G19R13G15G13G17R24R14
                                R17R23
 128637951.382 6 100237368.64343  24478986.906    24478986.889    24478991.463
        37.250          18.000
 125261557.150 6  97606422.06043  23836479.170    23836479.170    23836483.664
        39.250          22.250
 113264932.345 7  88258398.46745  21553603.362    21553602.674    21553602.825
        47.250          32.250
 119301196.329 6  92962003.59344  22702261.704    22702261.878    22702265.607
        41.500          24.000
 120063354.162 5  93555865.44641  22847299.647    22847299.250    22847303.421
        32.250          11.500
 108707936.436 8  84707485.11547  20686429.439    20686428.496    20686427.704
        51.250          46.000
 105541086.397 6  82087542.566 7  19764453.961                    19764462.167
        41.000          46.000
 122190997.599 7  95213759.55044  23252173.815    23252173.819    23252174.508
        43.500          27.250
 117726702.349 7  91735064.76944  22402647.759    22402647.500    22402648.054
        45.250          29.500
 105501493.152 8  82208959.27847  20076264.455    20076264.344    20076264.455
        51.750          46.250
 103440746.807 6  80453939.013 6  19343935.688                    19343942.256
        39.000          36.500
 110267686.111 6  85763806.339 6  20685934.075                    20685944.194
        40.750          40.500
 120416005.407 5  93656932.196 6  22502607.512                    22502616.661
        35.000          37.500
 108614295.291 7  84477829.395 6  20304292.095                    20304301.155
        44.000          39.750
 17  1 13  0  3  0.0000000  0 14G01G24G28G06G30G19R13G15G13G17R24R14
                                R17R23
 128703591.939 6 100288517.10442  24491478.433    24491478.429    24491482.542
        36.500          16.000
 125161714.910 6  97528622.89543  23817480.140    23817480.220    23817483.601
        40.250          23.000
 113325125.418 7  88305302.15145  21565057.620    21565056.914    21565057.338
        47.000          32.750
 119204517.904 7  92886669.77344  22683864.715    22683864.880    22683868.297
        42.500          24.250
 120154760.249 5  93627090.98041  22864692.796    22864692.282    22864697.545
        31.750           8.000
 108696484.020 8  84698561.15647  20684250.082    20684249.143    20684248.195
        50.750          45.750
 105557684.953 6  82100452.552 7  19767562.423                    19767570.240
        41.000          46.250
 122210331.966 7  95228825.25744  23255852.391    23255852.347    23255853.983
        42.750          27.500
 117790824.809 7  91785030.28444  22414849.216    22414848.939    22414850.392
        45.000          29.500
 105524929.805 8  82227221.59547  20080724.000    20080723.893    20080724.143
        51.500          46.000
 103407235.887 6  80427874.963 6  19337668.735                    19337675.023
        39.500          36.000
 110185960.105 6  85700241.680 6  20670601.646                    20670612.570
        40.500          40.750
 120293769.934 5  93561860.202 6  22479764.545                    22479773.654
        34.250          37.250
 108695268.576 7  84540808.597 6  20319428.989                    20319438.147
        43.500          39.750
 17  1 13  0  3 30.0000000  0 14G01G24G28G06G30G19R13G15G13G17R24R14
                                R17R23
 128769640.051 6 100339983.13542  24504046.241    24504046.224    24504051.384
        36.000          15.750
 125062009.179 6  97450930.15543  23798506.634    23798506.718    23798509.818
        40.250          23.000
 113385485.302 7  88352335.81445  21576543.715    21576543.013    21576543.693
        46.750          32.500
 119108034.279 7  92811487.73944  22665504.009    22665504.174    22665508.490
        42.500          26.750


 108685469.591 8  84689978.49047  20682153.991    20682153.048    20682152.109
        50.500          45.250
 105574791.772 6  82113757.854 7  19770765.920                    19770774.095
        41.250          46.500
 122230138.456 7  95244258.86244  23259622.756    23259622.712    23259623.077
        44.000          26.500
 117855312.394 7  91835280.28344  22427121.123    22427120.828    22427121.790
        45.250          28.750
 105548859.757 8  82245868.31147  20085277.990    20085277.879    20085277.820
        51.750          45.750
 103374472.780 6  80402392.578 6  19331541.580                    19331548.582
        39.250          36.250
 110104428.136 6  85636827.954 6  20655307.131                    20655317.787
        41.000          40.750
 120171824.028 6  93467013.436 6  22456976.718                    22456985.224
        37.250          37.500
 108776770.756 7  84604199.165 6  20334665.301                    20334674.678
        44.000          40.250
 17  1 13  0  4  0.0000000  0 14G01G24G28G06G30G19R13G15G13G17R24R14
                                R17R23
 128836093.221 6 100391764.78142  24516692.983    24516692.970    24516697.405
        37.000          17.000
 124962442.159 6  97373345.50143  23779559.622    23779559.684    23779563.441
        40.750          23.000
 113446011.265 7  88399498.86945  21588061.537    21588060.844    21588061.211
        47.000          32.250
 119011748.157 7  92736459.62244  22647181.259    22647181.424    22647185.730
        42.250          26.500


 108674891.983 8  84681736.20047  20680141.224    20680140.281    20680139.319
        50.750          45.500
 105592407.962 6  82127459.321 7  19774065.048                    19774072.752
        41.250          46.000
 122250415.140 7  95260058.84744  23263480.348    23263480.295    23263481.363
        42.500          26.500
 117920161.861 7  91885812.31244  22439461.505    22439461.192    22439462.180
        45.000          28.500
 105573281.003 8  82264897.84947  20089925.159    20089925.057    20089925.311
        51.500          45.750
 103342457.692 6  80377491.964 6  19325555.101                    19325561.518
        39.250          36.250
 110023093.562 6  85573567.755 6  20640048.350                    20640059.627
        40.500          40.500
 120050170.344 6  93372393.951 6  22434242.015                    22434250.739
        36.750          37.500
 108858797.375 7  84667997.641 6  20349998.808                    20350008.431
        44.000          39.750
 17  1 13  0  4 30.0000000  0 13G01G24G28G06G19R13G15G13G17R24R14R17
                                R23
 128902950.034 5 100443861.00142  24529414.418    24529414.351    24529419.922
        35.750          17.000
 124863016.387 6  97295870.91343  23760640.093    23760640.155    23760643.174
        40.000          23.250
 113506703.687 7  88446791.65845  21599610.567    21599609.865    21599610.831
        46.250          32.250
 118915663.075 7  92661588.18244  22628897.143    22628897.290    22628901.082
        43.000          28.250
 108664751.121 8  84673834.23747  20678211.518    20678210.571    20678209.609
        51.000          46.000
 105610535.073 6  82141558.191 7  19777459.734                    19777467.640
        41.500          46.250
 122271160.855 7  95276224.34144  23267427.861    23267427.826    23267428.867
        42.750          26.750
 117985370.755 7  91936624.43244  22451870.365    22451870.035    22451871.130
        45.750          29.250
 105598192.307 8  82284309.24847  20094665.513    20094665.411    20094665.643
        51.250          45.750
 103311190.810 6  80353173.270 6  19319708.285                    19319714.438
        39.000          36.250
 109941959.719 6  85510463.670 6  20624827.796                    20624838.998
        40.500          41.000
 119928812.671 6  93278004.686 6  22411564.400                    22411571.890
        36.500          36.750
 108941345.015 7  84732201.340 6  20365430.261                    20365440.385
        44.000          40.000
 17  1 13  0  5  0.0000000  0 13G01G24G28G06G19R13G15G13G17R24R14R17
                                R23
 128970207.990 6 100496269.69343  24542215.520    24542215.351    24542218.556
        38.000          18.750
 124763733.892 6  97218507.93643  23741746.232    23741746.294    23741750.328
        39.500          23.250
 113567562.199 7  88494213.86345  21611191.725    21611191.006    21611191.671
        46.500          32.250
 118819781.692 7  92586875.46844  22610651.004    22610651.156    22610655.744
        42.750          28.000
 108655045.925 8  84666271.74547  20676364.702    20676363.755    20676362.829
        51.000          46.250
 105629173.832 6  82156055.000 7  19780950.564                    19780957.987
        41.250          46.250
 122292373.484 7  95292753.65144  23271464.216    23271464.194    23271466.250
        42.250          27.250
 118050936.171 7  91987714.33544  22464347.390    22464347.086    22464348.133
        46.000          29.750
 105623591.503 8  82304100.82947  20099498.841    20099498.734    20099498.850
        51.500          45.750
 103280672.571 6  80329436.907 5  19314001.229                    19314007.301
        39.000          35.750
 109861028.336 6  85447517.077 6  20609644.710                    20609656.194
        40.000          40.750
 119807753.543 6  93183847.619 6  22388940.431                    22388949.643
        36.500          38.000
 109024409.295 7  84796806.885 6  20380958.632                    20380968.309
        43.750          40.250
 17  1 13  0  5 30.0000000  0 14G01G24G28G06G30G19R13G15G13G17R24R14
                                R17R23
 129037865.369 6 100548989.68043  24555088.847    24555088.611    24555093.967
        37.250          18.500
 124664597.902 6  97141259.15043  23722882.039    23722882.123    23722885.956
        40.000          23.500
 113628586.578 7  88541765.30745  21622803.836    21622803.126    21622804.337
        46.250          31.500
 118724107.282 7  92512324.00844  22592444.909    22592445.092    22592448.934
        42.500          26.000
 120615673.402 5                  22952397.095
        34.500
 108645775.890 8  84659048.35247  20674600.468    20674599.525    20674598.751
        50.750          45.750
 105648325.688 6  82170950.877 7  19784536.931                    19784544.233
        41.500          46.000
 122314051.657 7  95309645.70644  23275590.151    23275590.155    23275591.188
        43.750          26.750
 118116855.217 7  92039079.77544  22476891.566    22476891.262    22476891.906
        45.500          28.250
 105649477.367 8  82324271.63447  20104424.709    20104424.602    20104424.834
        51.250          45.500
 103250903.341 6  80306283.070 6  19308434.555                    19308440.628
        39.000          36.250
 109780303.189 6  85384730.856 6  20594501.784                    20594512.324
        40.250          40.750
 119686996.439 6  93089925.462 6  22366376.096                    22366384.239
        36.000          40.000
 109107986.599 7  84861811.450 6  20396582.186                    20396592.042
        43.750          40.000
 17  1 13  0  6  0.0000000  0 14G01G24G28G06G30G19R13G15G13G17R24R14
                                R17R23
 129105920.064 5 100602019.26042  24568038.438    24568038.188    24568044.112
        35.000          17.000
 124565610.307 6  97064126.03143  23704044.998    23704045.047    23704049.528
        40.000          23.750
 113689776.324 7  88589445.60845  21634448.151    21634447.454    21634448.460
        46.000          31.750
 118628642.859 7  92437936.17444  22574279.193    22574279.353    22574282.203
        44.000          27.500
 120708608.966 5                  22970082.184
        32.250
 108636939.868 8  84652163.14647  20672919.263    20672918.320    20672917.309
        51.000          45.750
 105667992.024 6  82186246.922 7  19788219.236                    19788227.316
        41.500          46.000
 122336193.881 7  95326899.35944  23279803.747    23279803.773    23279804.619
        42.250          26.250
 118183124.895 7  92090718.47344  22489502.284    22489501.963    22489502.199
        46.000          28.000
 105675847.474 8  82344819.76647  20109442.741    20109442.634    20109442.929
        51.000          45.500
 103221883.138 6  80283711.817 6  19303007.020                    19303013.428
        39.250          36.500
 109699786.904 6  85322107.096 6  20579396.500                    20579407.661
        40.250          40.500
 119566544.367 5  92996240.595 6  22343865.398                    22343874.283
        35.000          39.500
 109192072.688 7  84927211.706 6  20412301.513                    20412311.275
        44.000          40.250
 17  1 13  0  6 30.0000000  0 15G01G24G28G06G30G19R13G15G13G17R24R14
                                R12R17R23
 129174370.035 6 100655356.82742  24581065.437    24581065.308    24581069.712
        37.500          17.500
 124466773.199 6  96987110.12644  23685237.179    23685237.255    23685241.016
        39.000          24.250
 113751131.151 7  88637254.55345  21646123.701    21646123.004    21646123.419
        46.250          31.250
 118533391.469 7  92363714.35944  22556153.216    22556153.372    22556157.227
        43.000          28.500
 120801793.810 5                  22987815.610
        34.250
 108628536.529 8  84645615.09247  20671320.162    20671319.215    20671318.262
        51.250          46.000
 105688173.852 6  82201943.887 7  19791999.009                    19792006.812
        41.750          46.250
 122358797.913 7  95344512.85144  23284105.971    23284105.963    23284106.275
        44.000          28.250
 118249742.481 7  92142628.27344  22502178.887    22502178.561    22502179.410
        45.000          28.750
 105702699.930 8  82365743.76347  20114552.755    20114552.653    20114552.692
        51.250          45.500
 103193612.327 6  80261723.434 6  19297719.738                    19297726.490
        39.250          36.250
 109619482.950 6  85259648.490 6  20564332.431                    20564343.100
        40.750          40.750
 125195943.371 4                  23436935.341
        29.500
 119446400.468 5  92902795.389 6  22321414.365                    22321422.235
        35.750          39.500
 109276663.623 7  84993004.643 6  20428114.096                    20428124.448
        43.500          40.250
 17  1 13  0  7  0.0000000  0 15G01G24G28G06G30G19R13G15G13G17R24R14
                                R12R17R23
 129243213.438 5 100709000.98742  24594164.282    24594164.211    24594169.898
        35.000          16.500
 124368089.557 6  96910213.82344  23666456.856    23666456.981    23666462.222
        38.500          24.500
 113812650.982 7  88685192.06445  21657830.498    21657829.810    21657830.239
        46.000          31.000
 118438356.393 7  92289661.11344  22538068.427    22538068.565    22538072.345
        43.250          29.000
 120895226.395 5                  23005594.857
        30.500
 108620565.603 8  84639403.98747  20669803.101    20669802.158    20669801.313
        51.000          45.750
 105708872.832 6  82218043.081 7  19795875.472                    19795883.136
        41.250          46.500
 122381862.163 7  95362484.98344  23288493.402    23288493.385    23288495.517
        42.250          27.500
 118316705.526 7  92194807.24744  22514921.714    22514921.388    22514922.358
        45.500          28.500
 105730033.263 8  82387042.46447  20119754.213    20119754.111    20119754.101
        51.500          45.750
 103166091.319 6  80240318.216 6  19292573.630                    19292580.051
        39.000          36.500
 109539393.824 6  85197356.961 6  20549307.399                    20549318.610
        40.750          40.750
 125293517.389 4                  23455200.332
        28.250
 119326568.140 6  92809592.518 6  22299021.682                    22299028.908
        36.000          39.750
 109361755.831 7  85059187.470 6  20444022.068                    20444032.040
        43.750          40.500
 17  1 13  0  7 30.0000000  0 14G01G24G28G06G30G19R13G15G13G17R24R14
                                R17R23
 129312448.005 6 100762949.96042  24607340.477    24607340.446    24607345.078
        36.250          16.500
 124269561.759 6  96833438.98944  23647708.720    23647708.858    23647712.606
        39.750          24.500
 113874335.262 7  88733257.70645  21669568.583    21669567.908    21669568.534
        46.000          31.250
 118343540.515 7  92215778.64344  22520025.252    22520025.381    22520029.714
        44.000          28.750
 120988905.046 4                  23023420.972
        29.000
 108613026.206 8  84633529.12947  20668368.480    20668367.541    20668366.611
        51.000          46.000
 105730089.681 6  82234545.067 7  19799848.880                    19799856.481
        41.500          46.250
 122405385.484 7  95380814.83244  23292970.596    23292970.583    23292971.370
        43.000          27.250
 118384010.844 7  92247252.91244  22527730.283    22527729.953    22527730.395
        45.500          28.750
 105757845.484 8  82408714.32247  20125046.584    20125046.486    20125046.665
        51.250          45.500
 103139319.786 6  80219495.933 6  19287566.852                    19287573.658
        39.000          36.750
 109459522.655 6  85135234.958 6  20534323.712                    20534334.743
        41.250          41.000
 119207050.202 6  92716634.248 6  22276684.912                    22276693.811
        37.000          39.000
 109447344.908 7  85125756.711 6  20460021.739                    20460031.546
        42.750          39.750
 17  1 13  0  8  0.0000000  0 14G01G24G28G06G30G19R13G15G13G17R24R14
                                R17R23
 129382071.943 6 100817202.29442  24620589.452    24620589.385    24620593.946
        37.250          15.500
 124171191.845 6  96756787.10243  23628990.276    23628990.378    23628992.972
        40.250          23.750
 113936184.459 7  88781451.85745  21681337.782    21681337.121    21681338.126
        45.750          31.500
 118248947.037 7  92142069.47444  22502024.364    22502024.493    22502028.979
        42.000          27.000
 121082828.258 4                  23041296.091
        28.000
 108605917.354 8  84627989.76747  20667015.501    20667014.562    20667013.824
        51.000          45.500
 105751825.647 6  82251450.804 7  19803918.924                    19803926.566
        41.250          46.000
 122429365.681 7  95399500.65044  23297534.147    23297534.173    23297534.902
        43.500          28.000
 118451655.588 7  92299963.08044  22540602.077    22540601.720    22540602.645
        44.750          28.250
 105786134.852 8  82430757.98647  20130429.948    20130429.850    20130430.047
        51.250          45.500
 103113297.791 6  80199256.616 6  19282700.475                    19282707.222
        39.000          36.250
 109379872.685 6  85073284.987 6  20519381.700                    20519392.642
        41.000          40.750
 119087849.926 5  92623922.944 6  22254410.052                    22254418.933
        34.500          36.750
 109533427.027 7  85192709.471 6  20476113.445                    20476123.694
        43.000          39.750
 17  1 13  0  8 30.0000000  0 14G01G24G28G06G30G19R13G15G13G17R24R14
                                R17R23
 129452083.088 5 100871756.36442  24633910.835    24633910.800    24633916.693
        35.000          14.000
 124072982.982 6  96680260.76244  23610301.384    23610301.362    23610305.042
        40.000          24.500
 113998197.912 7  88829773.98145  21693139.047    21693138.413    21693139.069
        46.000          31.250
 118154579.010 7  92068535.98444  22484067.159    22484067.297    22484071.135
        42.000          28.000
 121176994.424 5  94423635.5254   23059212.845    23059211.893    23059217.795
        30.000           4.750
 108599238.458 8  84622785.43547  20665744.760    20665743.821    20665743.034
        51.000          46.000
 105774081.843 6  82268761.178 7  19808086.418                    19808094.601
        41.250          46.000
 122453801.030 7  95418541.17044  23302183.328    23302183.324    23302184.822
        42.750          26.750
 118519636.998 7  92352935.57844  22553537.676    22553537.332    22553539.116
        43.750          28.000
 105814899.259 8  82453171.80847  20135903.331    20135903.238    20135903.630
        51.000          45.250
 103088025.828 6  80179600.633 6  19277974.904                    19277981.245
        39.250          36.500
 109300446.281 6  85011508.895 6  20504481.122                    20504492.150
        40.750          40.500
 118968970.344 5  92531461.016 5  22232194.379                    22232202.253
        35.000          34.750
 109619998.144 7  85260042.540 6  20492297.473                    20492307.480
        43.250          39.500
 17  1 13  0  9  0.0000000  0 14G01G24G28G06G30G19R13G15G13G17R24R14
                                R17R23
 129522479.391 5 100926610.59541  24647308.349    24647308.442    24647312.566
        34.000          11.500
 123974937.294 6  96603861.58043  23591643.450    23591643.410    23591647.313
        39.250          23.500
 114060375.575 7  88878224.08945  21704971.068    21704970.456    21704970.647
        46.250          31.000
 118060439.617 7  91995180.63745  22466153.142    22466153.280    22466157.242
        43.750          30.250
 121271401.731 5  94497199.6664   23077180.880    23077180.116    23077182.512
        34.250           5.500
 108592988.558 8  84617915.38647  20664555.858    20664554.919    20664553.725
        51.250          46.000
 105796859.838 6  82286477.373 7  19812352.310                    19812360.238
        41.500          46.000
 122478689.876 7  95437935.03044  23306919.979    23306919.966    23306920.771
        43.250          26.750
 118587952.106 7  92406168.09244  22566538.047    22566537.721    22566539.138
        44.500          28.250
 105844137.129 8  82475954.56247  20141467.102    20141467.004    20141467.406
        51.000          45.000
 103063503.634 6  80160527.843 6  19273388.764                    19273395.668
        39.250          36.500
 109221247.378 6  84949909.753 6  20489623.763                    20489634.862
        41.250          40.500
 118850414.697 5  92439251.108 6  22210040.167                    22210047.452
        35.000          37.250
 109707054.173 7  85327752.772 6  20508572.100                    20508581.638
        43.250          39.500
 17  1 13  0  9 30.0000000  0 14G01G24G28G06G30G19R13G15G13G17R24R14
                                R17R23
 129593258.571 5 100981763.19041  24660775.561    24660775.539    24660781.647
        31.250           8.750
 123877057.297 6  96527591.45743  23573017.022    23573016.964    23573020.912
        39.500          23.500
 114122717.109 7  88926801.87845  21716834.224    21716833.603    21716834.591
        45.750          32.000
 117966531.641 7  91922005.65845  22448282.512    22448282.655    22448287.655
        43.750          31.000
 121366048.554 5  94570950.40241  23095190.706    23095189.835    23095193.313
        35.000           8.500
 108587165.989 8  84613378.32947  20663447.437    20663446.494    20663445.675
        51.250          46.000
 105820160.257 6  82304599.917 7  19816715.505                    19816723.826
        41.250          46.000
 122504029.747 7  95457680.36644  23311741.587    23311741.556    23311742.884
        42.250          26.750
 118656598.101 7  92459658.46044  22579601.235    22579600.900    22579601.356
        45.250          28.000
 105873846.344 8  82499104.59747  20147120.776    20147120.674    20147120.892
        51.000          45.250
 103039730.998 6  80142038.044 6  19268943.032                    19268949.730
        39.250          36.250
 109142278.191 6  84888489.284 6  20474810.190                    20474820.206
        41.500          40.500
 118732185.777 6  92347295.314 6  22187947.857                    22187953.934
        36.500          37.000
 109794591.235 7  85395837.139 6  20524935.435                    20524946.077
        42.250          39.750
 17  1 13  0 10  0.0000000  0 14G01G24G28G06G30G19R13G15G13G17R24R14
                                R17R23
 129664418.870 5 101037212.7234   24674318.434    24674318.715    24674323.245
        31.000           4.500
 123779345.386 6  96451452.36544  23554423.962    23554423.851    23554427.338
        41.000          24.750
 114185222.290 7  88975507.19745  21728727.855    21728727.238    21728728.919
        45.500          31.000
 117872858.428 7  91849013.58445  22430457.471    22430457.605    22430461.768
        44.500          31.500
 121460933.426 5  94644886.62341  23113245.012    23113244.199    23113249.510
        30.250           6.750
 108581770.925 8  84609174.38847  20662421.052    20662420.113    20662418.977
        51.750          46.250
 105843984.532 6  82323129.887 7  19821177.030                    19821185.079
        41.250          45.750
 122529819.997 7  95477776.63744  23316649.175    23316649.158    23316650.476
        42.000          26.750
 118725572.009 7  92513404.33744  22592726.409    22592726.065    22592726.686
        45.750          28.500
 105904025.264 8  82522620.63947  20152863.600    20152863.498    20152863.743
        51.000          44.750
 103016708.076 6  80124131.301 6  19264638.205                    19264644.698
        39.250          36.250
 109063542.081 6  84827250.102 6  20460039.200                    20460050.160
        41.750          40.750
 118614286.898 6  92255596.219 6  22165914.142                    22165921.212
        36.500          36.000
 109882605.051 7  85464292.314 6  20541389.141                    20541398.791
        43.000          39.750
 17  1 13  0 10 30.0000000  0 14G01G24G28G06G30G19R13G15G13G17R24R14
                                R17R23
 129735957.867 5 101092957.45341  24687931.649    24687931.966    24687936.541
        31.500           6.250
 123681804.395 6  96375446.46044  23535861.765    23535861.605    23535865.995
        40.250          24.500
 114247890.851 7  89024339.82245  21740654.227    21740653.615    21740653.945
        46.500          31.250
 117779422.862 7  91776206.65845  22412677.079    22412677.226    22412680.880
        44.000          31.250
 121556054.498 5  94719006.7004   23131347.951    23131347.156    23131350.460
        33.500           5.250
 108576802.098 8  84605302.59247  20661475.264    20661474.325    20661473.439
        51.000          46.000
 105868333.737 6  82342068.132 7  19825737.048                    19825744.717
        41.250          46.000
 122556058.112 7  95498221.90444  23321643.123    23321643.097    23321643.986
        43.500          27.000
 118794870.759 7  92567403.30744  22605913.644    22605913.318    22605914.368
        45.750          28.000
 105934671.793 8  82546501.04447  20158695.428    20158695.321    20158695.566
        51.500          45.250
 102994434.701 6  80106807.600 6  19260472.822                    19260479.359
        39.000          36.750
 108985042.089 6  84766194.555 6  20445311.750                    20445323.595
        41.000          41.000
 118496720.951 5  92164156.065 6  22143942.275                    22143951.952
        35.500          37.500
 109971091.801 7  85533115.328 6  20557930.853                    20557941.017
        43.000          39.500
 17  1 13  0 11  0.0000000  0 14G01G24G28G06G30G19R13G15G13G17R24R14
                                R17R23
 129807873.474 5 101148995.53741  24701616.634    24701616.960    24701621.580
        32.750           6.750
 123584436.395 6  96299575.28744  23517333.771    23517333.651    23517337.165
        41.250          24.500
 114310722.350 7  89073299.41245  21752610.907    21752610.286    21752610.724
        46.750          31.500
 117686227.941 7  91703587.27845  22394943.067    22394943.219    22394946.617
        45.750          32.000
 121651410.045 5                  23149493.125
        33.000
 108572258.249 8  84601761.94047  20660610.648    20660609.709    20660608.632
        51.250          46.000
 105893208.082 6  82361414.831 7  19830395.374                    19830403.262
        41.250          46.000
 122582742.134 7  95519014.60444  23326720.736    23326720.696    23326721.778
        43.500          27.250
 118864491.463 7  92621653.18844  22619162.185    22619161.877    22619163.164
        45.500          28.250
 105965783.753 8  82570744.12747  20164616.004    20164615.897    20164615.977
        51.250          45.000
 102972910.725 6  80090066.751 6  19256448.183                    19256454.058
        39.250          37.000
 108906781.115 6  84705324.948 6  20430631.051                    20430641.921
        41.000          40.750
 118379490.947 6  92072977.241 6  22122035.818                    22122044.985
        36.250          37.250
 110060047.252 7  85602302.892 6  20574560.236                    20574570.203
        43.250          40.000
 17  1 13  0 11 30.0000000  0 14G01G24G28G06G30G19R13G15G13G17R24R14
                                R17R23
 129880163.937 5 101205325.66441  24715374.037    24715374.434    24715378.048
        34.500           8.250
 123487243.819 6  96223840.85944  23498839.171    23498839.015    23498842.471
        41.750          25.500
 114373717.145 7  89122386.24745  21764597.758    21764597.132    21764598.039
        45.750          30.750
 117593277.074 7  91631158.07845  22377254.553    22377254.696    22377259.190
        44.750          32.500
 121746998.604 5                  23167682.836
        35.750
 108568138.660 8  84598551.87847  20659826.701    20659825.767    20659824.729
        51.250          46.000
 105918609.635 6  82381171.577 7  19835151.799                    19835160.058
        41.250          46.250
 122609870.375 7  95540153.48044  23331882.200    23331882.120    23331883.881
        42.000          26.750
 118934431.667 7  92676152.01944  22632471.299    22632470.986    22632472.560
        44.750          28.500
 105997359.670 8  82595348.73547  20170624.434    20170624.327    20170624.697
        50.750          45.000
 102952136.058 6  80073908.695 6  19252563.045                    19252569.189
        39.500          36.500
 108828762.852 6  84644644.071 6  20415995.189                    20416005.518
        41.000          41.250
 118262600.326 6  91982062.379 6  22100192.599                    22100201.181
        36.000          37.750
 110149467.743 7  85671852.126 6  20591276.807                    20591286.439
        43.500          39.500
 17  1 13  0 12  0.0000000  0 14G01G24G28G06G30G19R13G15G13G17R24R14
                                R17R23
 129952826.677 5 101261945.96141  24729199.628    24729200.034    24729205.374
        30.250           8.250
 123390229.578 7  96148245.35844  23480377.635    23480377.457    23480380.622
        42.000          24.500
 114436874.614 7  89171599.83145  21776616.299    21776615.651    21776616.580
        45.750          30.500
 117500573.026 7  91558921.16945  22359613.801    22359613.957    22359618.076
        44.750          32.250
 121842818.278 5                  23185914.813
        34.500
 108564442.279 8  84595671.60347  20659123.293    20659122.354    20659121.361
        51.500          46.000
 105944538.907 6  82401338.767 7  19840008.214                    19840015.985
        41.500          46.250
 122637440.850 7  95561636.93544  23337129.738    23337129.716    23337130.575
        43.000          27.500
 119004687.859 7  92730897.04944  22645840.498    22645840.190    22645841.356
        45.250          28.000
 106029397.333 8  82620313.14347  20176721.196    20176721.089    20176721.312
        51.500          44.750
 102932109.961 6  80058332.824 6  19248817.681                    19248824.169
        39.250          36.500
 108750989.490 6  84584153.691 6  20401405.094                    20401415.508
        41.250          41.000
 118146051.673 6  91891413.453 6  22078413.092                    22078421.365
        36.500          38.500
 110239349.004 7  85741759.782 6  20608078.012                    20608088.520
        42.250          39.500
 17  1 13  0 12 30.0000000  0 14G01G24G28G06G30G19R13G15G13G17R24R14
                                R17R23
 130025859.681 5 101318854.63741  24743097.695    24743098.025    24743103.083
        31.500           8.000
 123293396.160 6  96072790.76844  23461950.740    23461950.580    23461953.915
        41.250          25.500
 114500195.076 7  89220940.42545  21788666.034    21788665.386    21788666.203
        45.500          30.500
 117408118.869 7  91486879.02945  22342020.157    22342020.335    22342024.396
        44.500          31.750
 121938867.423 5  95017307.66041  23204194.528    23204193.786    23204197.283
        35.750          11.500
 108561168.194 8  84593120.37447  20658499.953    20658499.019    20658498.285
        51.000          46.000
 105970996.895 6  82421917.192 7  19844963.035                    19844970.829
        41.250          46.500
 122665451.725 7  95583463.57444  23342460.342    23342460.302    23342460.860
        43.250          26.750
 119075257.491 7  92785886.34444  22659269.755    22659269.460    22659270.019
        45.250          27.000
 106061894.843 8  82645635.87547  20182905.293    20182905.182    20182905.307
        51.000          44.750
 102912832.599 6  80043339.346 6  19245212.560                    19245219.281
        39.500          36.250
 108673464.929 6  84523856.831 6  20386861.736                    20386872.173
        41.250          41.250
 118029848.119 5  91801032.999 6  22056696.031                    22056705.373
        33.500          38.000
 110329687.002 7  85812022.642 6  20624966.937                    20624975.961
        42.750          39.250
 17  1 13  0 13  0.0000000  0 14G01G24G28G06G30G19R13G15G13G17R24R14
                                R17R23
 130099260.847 5 101376050.2754   24757066.060    24757066.203    24757070.741
        31.000           4.500
 123196746.032 6  95997479.01444  23443558.013    23443557.866    23443562.064
        41.250          24.500
 114563677.665 7  89270407.36745  21800746.113    21800745.461    21800746.506
        45.750          30.250
 117315917.727 7  91415033.99345  22324474.861    22324475.026    22324478.912
        45.500          32.250
 122035144.359 5  95092328.66941  23222513.550    23222513.550    23222518.634
        35.000           8.250
 108558315.363 8  84590897.40147  20657957.259    20657956.325    20657955.457
        51.000          46.000
 105997984.377 6  82442907.428 7  19850016.474                    19850024.523
        41.000          46.250
 122693901.234 7  95605632.00944  23347872.467    23347872.396    23347874.310
        42.000          26.750
 119146137.594 7  92841117.57244  22672757.618    22672757.288    22672758.418
        45.000          27.000
 106094850.184 8  82671315.35947  20189176.427    20189176.316    20189176.494
        51.250          44.750
 102894303.762 6  80028928.027 6  19241747.370                    19241754.364
        39.500          36.250
 108596191.601 6  84463755.356 6  20372364.624                    20372376.134
        41.250          41.500
 117913992.883 5  91710923.385 6  22035045.271                    22035054.648
        34.750          36.000
 110420477.721 7  85882637.635 6  20641938.605                    20641948.626
        42.000          38.750
 17  1 13  0 13 30.0000000  0 14G01G24G28G06G30G19R13G15G13G17R24R14
                                R17R23
 130173028.062 5 101433531.20141  24771103.802    24771103.794    24771108.113
        33.250           9.500
 123100281.519 6  95922311.89344  23425201.582    23425201.426    23425205.150
        40.750          25.250
 114627322.522 7  89320000.71945  21812857.605    21812856.975    21812857.744
        46.250          30.750
 117223972.799 7  91343388.63245  22306978.484    22306978.640    22306982.312
        44.500          30.750
 122131647.587 6  95167525.94541  23240878.258    23240878.307    23240881.965
        36.000           6.000
 108555882.767 8  84589001.88047  20657494.334    20657493.395    20657492.523
        51.000          45.750
 106025502.964 6  82464310.753 7  19855170.140                    19855177.965
        41.250          46.250
 122722787.262 7  95628140.55644  23353370.470    23353370.474    23353371.655
        42.750          26.500
 119217325.235 7  92896588.45744  22686303.374    22686303.039    22686304.962
        43.000          26.250
 106128261.563 8  82697350.20347  20195534.385    20195534.269    20195534.484
        51.000          44.750
 102876522.951 6  80015098.525 6  19238421.954                    19238429.319
        39.250          36.500
 108519172.998 6  84403852.004 6  20357916.673                    20357927.226
        41.250          41.000
 117798488.745 5  91621086.941 6  22013460.293                    22013469.813
        34.250          37.000
 110511717.258 7  85953601.706 6  20658994.920                    20659005.076
        42.750          39.500
 17  1 13  0 14  0.0000000  0 14G01G24G28G06G30G19R13G15G13G17R24R14
                                R17R23
 130247159.089 5 101491295.61141  24785209.164    24785209.093    24785214.906
        32.000           6.750
 123004005.383 6  95847291.53644  23406881.260    23406881.149    23406884.381
        41.500          24.750
 114691129.635 7  89369720.56145  21824999.384    21824998.727    21824999.496
        45.500          30.500
 117132287.067 7  91271945.22245  22289530.776    22289530.923    22289535.534
        43.500          31.250
 122228375.158 5  95242898.11141  23259286.474    23259286.452    23259288.357
        35.250          10.000
 108553869.417 8  84587433.04347  20657111.282    20657110.348    20657109.341
        51.000          46.000
 106053552.970 6  82486127.422 7  19860422.678                    19860430.807
        41.250          46.000
 122752107.738 7  95650987.69344  23358950.183    23358950.143    23358951.292
        42.250          26.500
 119288817.295 7  92952296.50244  22699908.299    22699907.964    22699909.614
        43.500          27.250
 106162126.994 8  82723738.84647  20201979.058    20201978.942    20201978.874
        51.250          44.750
 102859489.799 6  80001850.516 6  19235237.224                    19235243.968
        39.000          36.250
 108442412.112 6  84344149.106 6  20343516.957                    20343527.345
        41.500          41.250
 117683338.957 5  91531526.027 6  21991943.516                    21991951.927
        35.500          41.000
 110603401.438 7  86024911.617 6  20676134.386                    20676144.268
        42.500          39.250
 17  1 13  0 14 30.0000000  0 14G01G24G28G06G30G19R13G15G13G17R24R14
                                R17R23
 130321651.613 5 101549341.67041  24799386.032    24799385.934    24799390.486
        35.000           7.750
 122907919.593 6  95772419.53444  23388596.097    23388596.053    23388600.234
        41.250          25.750
 114755098.102 7  89419566.10545  21837172.254    21837171.593    21837172.688
        45.500          31.000
 117040863.191 7  91200705.86245  22272133.893    22272134.080    22272137.797
        45.500          32.500
 122325325.186 5  95318443.57041  23277734.949    23277734.838    23277737.333
        35.250          11.500
 108552274.171 8  84586189.99647  20656807.824    20656806.885    20656805.870
        51.250          45.750
 106082135.280 6  82508358.088 7  19865775.925                    19865783.464
        41.000          46.250
 122781860.474 6  95674171.63444  23364610.810    23364610.788    23364612.765
        41.250          27.000
 119360610.683 7  93008239.34944  22713570.041    22713569.706    22713571.583
        44.000          27.500
 106196444.203 8  82750479.52647  20208509.290    20208509.174    20208509.326
        51.000          45.000
 102843203.537 6  79989183.444 6  19232191.625                    19232198.153
        39.000          36.250
 108365911.774 6  84284648.865 6  20329165.369                    20329175.972
        41.000          41.250
 117568545.912 5  91442242.655 6  21970489.592                    21970498.678
        34.750          36.250
 110695526.006 7  86096564.043 6  20693355.798                    20693366.043
        42.000          39.000
 17  1 13  0 15  0.0000000  0 14G01G24G28G06G30G19R13G15G13G17R24R14
                                R17R23
 130396503.774 5 101607668.03841  24813631.499    24813631.392    24813634.343
        34.750           9.250
 122812027.799 6  95697698.66844  23370348.121    23370348.059    23370352.485
        40.500          24.750
 114819228.628 7  89469537.93045  21849375.974    21849375.308    21849376.493
        45.500          30.750
 116949704.897 7  91129673.43245  22254787.141    22254787.319    22254790.763
        46.000          32.250
 122422496.479 5  95394161.40341  23296225.855    23296225.695    23296228.328
        35.000          10.000
 108551096.378 8  84585272.24947  20656583.429    20656582.490    20656581.703
        50.750          46.000
 106111251.257 6  82531003.848 7  19871228.175                    19871235.924
        41.000          46.000
 122812044.089 7  95697691.31744  23370356.228    23370356.245    23370356.653
        43.500          27.750
 119432703.042 7  93064415.20644  22727289.328    22727288.993    22727289.864
        44.750          27.750
 106231211.397 8  82777570.83947  20215125.310    20215125.190    20215125.208
        51.250          44.500
 102827664.402 6  79977097.476 6  19229285.991                    19229292.658
        38.750          36.250
 108289675.622 6  84225354.099 6  20314863.251                    20314874.216
        41.500          41.500
 117454113.350 6  91353239.542 6  21949107.581                    21949115.285
        37.250          39.000
 110788087.437 7  86168556.233 6  20710659.712                    20710669.295
        42.500          38.750
 17  1 13  0 15 30.0000000  0 15G01G24G28G06G30G19R13G15G13G17R24R14
                                R17R15R23
 130471713.044 5 101666272.60641  24827939.292    24827939.252    24827946.250
        31.000           6.500
 122716331.545 6  95623130.21144  23352138.927    23352138.896    23352142.518
        41.000          25.750
 114883520.403 7  89519635.40145  21861610.132    21861609.480    21861610.526
        44.750          30.500
 116858814.565 7  91058849.80645  22237491.097    22237491.271    22237495.148
        45.750          32.250
 122519886.746 5  95470049.94941  23314757.100    23314756.989    23314761.062
        33.000          10.500
 108550334.493 8  84584678.57547  20656438.504    20656437.565    20656436.787
        51.000          46.000
 106140901.136 6  82554064.860 7  19876779.828                    19876788.508
        41.000          46.500
 122842655.961 6  95721544.70944  23376179.676    23376179.650    23376182.386
        41.000          27.500
 119505090.652 7  93120821.13544  22741064.170    22741063.862    22741064.666
        44.500          28.500
 106266426.311 8  82805011.02247  20221826.265    20221826.149    20221826.332
        50.750          44.500
 102812871.265 6  79965591.710 6  19226519.819                    19226525.927
        38.500          36.250
 108213706.711 6  84166267.169 6  20300611.618                    20300622.864
        41.000          41.500
 117340043.525 6  91264518.621 6  21927789.210                    21927798.488
        36.500          40.500
 125775197.839 4                  23537111.891
        28.250
 110881081.060 7  86240884.599 6  20728043.708                    20728053.613
        42.250          38.500
 17  1 13  0 16  0.0000000  0 16G01G24G28G06G30G02G19R13G15G13G17R24
                                R14R17R15R23
 130547277.521 5 101725154.03641  24842322.159    24842322.413    24842325.798
        33.250           8.750
 122620833.875 7  95548716.47144  23333966.848    23333966.831    23333969.670
        42.000          26.750
 114947973.651 7  89569858.69845  21873875.507    21873874.850    21873875.605
        45.250          30.750
 116768195.799 7  90988237.80845  22220247.121    22220247.273    22220250.881
        46.000          32.500
 122617494.749 6  95546107.97442  23333332.350    23333331.997    23333335.466
        36.000          12.250
 130074468.591 5                  24752344.793
        30.250
 108549987.690 8  84584408.34447  20656372.480    20656371.546    20656370.607
        50.750          46.000
 106171086.428 6  82577542.305 7  19882433.475                    19882441.332
        41.250          46.250
 122873694.602 6  95745730.62044  23382086.788    23382086.792    23382088.500
        41.250          26.750
 119577771.099 7  93177455.18645  22754895.189    22754894.885    22754895.990
        45.250          30.000
 106302087.351 8  82832798.84047  20228612.341    20228612.225    20228612.457
        51.000          44.750
 102798823.871 6  79954665.960 6  19223893.107                    19223899.023
        38.750          36.000
 108138008.404 6  84107390.724 6  20286411.372                    20286421.831
        41.500          41.750
 117226339.948 6  91176082.556 6  21906541.396                    21906551.243
        37.750          41.250
                  97738313.034 5                                  23516217.935
                        32.000
 110974503.335 7  86313546.363 6  20745508.042                    20745518.452
        42.250          38.750
 17  1 13  0 16 30.0000000  0 16G01G24G28G06G30G02G19R13G15G13G17R24
                                R14R17R15R23
 130623194.797 5 101784310.2194   24856767.744    24856767.842    24856772.475
        31.250           4.250
 122525537.266 6  95474459.42644  23315831.060    23315831.052    23315835.255
        40.500          25.000
 115012587.936 7  89620207.47345  21886171.199    21886170.533    21886171.454
        45.500          30.750
 116677851.322 7  90917839.53945  22203054.765    22203054.908    22203058.825
        45.500          32.250
 122715318.395 6  95622334.17042  23351947.088    23351946.708    23351951.453
        37.000          15.000
 129956665.730 5 101264919.50641  24729927.610    24729927.137    24729927.784
        30.500           9.500
 108550054.954 8  84584460.76447  20656385.377    20656384.438    20656383.333
        51.250          46.000
 106201807.206 6  82601436.237 7  19888185.958                    19888194.325
        41.000          46.250
 122905157.626 7  95770247.22544  23388074.299    23388074.286    23388075.480
        42.000          26.250
 119650741.114 7  93234314.92744  22768780.190    22768779.904    22768781.576
        43.750          28.750
 106338192.279 8  82860932.55147  20235482.909    20235482.802    20235482.980
        51.000          44.250
 102785521.459 6  79944319.653 6  19221404.524                    19221411.321
        38.500          36.750
 108062583.628 6  84048727.023 6  20272261.562                    20272272.687
        41.500          41.500
 117113005.326 6  91087933.415 6  21885362.737                    21885370.611
        38.500          39.500
                  97651374.071 5                                  23495301.491
                        33.000
 111068349.775 7  86386538.003 6  20763051.259                    20763061.401
        42.000          38.750
 17  1 13  0 17  0.0000000  0 16G01G24G28G06G30G02G19R13G15G13G17R24
                                R14R17R15R23
 130699462.465 5 101843739.7204   24871281.142    24871281.285    24871285.743
        30.250           4.000
 122430444.063 6  95400360.84544  23297735.271    23297735.288    23297739.712
        40.250          26.500
 115077363.174 7  89670681.66845  21898497.446    21898496.780    21898497.553
        45.500          30.750
 116587784.105 7  90847657.30345  22185915.899    22185916.042    22185919.816
        46.250          33.000
 122813355.911 6  95698726.91142  23370604.012    23370603.588    23370607.903
        38.250          12.000
 129838783.401 5 101173063.23841  24707493.618    24707493.328    24707495.510
        30.500           8.250
 108550534.913 8  84584834.75647  20656476.750    20656475.807    20656474.921
        51.000          46.250
 106233064.325 6  82625747.337 7  19894039.276                    19894047.325
        41.250          46.000
 122937042.879 7  95795092.83644  23394142.493    23394142.501    23394142.989
        42.000          26.250
 119723997.508 7  93291397.75044  22782720.308    22782720.063    22782721.837
        43.250          26.750
 106374738.699 8  82889410.26847  20242437.382    20242437.271    20242437.525
        50.750          44.250
 102772963.521 6  79934552.397 6  19219056.600                    19219062.874
        38.750          36.000
 107987435.309 6  83990278.344 6  20258163.636                    20258174.945
        41.500          41.500
 117000042.412 6  91000073.368 6  21864252.971                    21864261.606
        37.250          41.000
 125439863.957 4  97564377.490 5  23474357.324                    23474368.015
        29.000          32.750
 111162616.719 7  86459856.725 6  20780673.584                    20780684.190
        42.250          39.000
 17  1 13  0 17 30.0000000  0 16G01G24G28G06G30G02G19R13G15G13G17R24
                                R14R17R15R23
 130776078.447 4 101903440.34841  24885860.782    24885861.063    24885865.276
        29.250           6.750
 122335556.844 7  95326422.81744  23279679.526    23279679.570    23279683.148
        42.000          27.000
 115142298.944 7  89721280.96845  21910854.569    21910853.903    21910854.690
        45.750          30.250
 116497997.180 7  90777693.48245  22168829.547    22168829.699    22168834.081
        46.000          33.000
